name,skill,city,lat,lon
Priya,Python Developer,Mumbai,19.0760,72.8777
Aryan,Graphic Design,Delhi,28.6139,77.2090
Neha,Project Management,Bengaluru,12.9716,77.5946
Raj,Data Analysis,Chennai,13.0827,80.2707
Sonia,AI Ethics,Hyderabad,17.3850,78.4867
